<?xml version="1.0" encoding="utf-8"?>
<?xml-stylesheet type="text/xsl" href="/schemas/mrd-1.5.xsl"?>
<MRData xmlns="http://ergast.com/mrd/1.5" series="f1" url="http://ergast.com/api/f1/1966/races" limit="30" offset="0" total="9">
	<RaceTable season="1966">
		<Race season="1966" round="1" url="http://en.wikipedia.org/wiki/1966_Monaco_Grand_Prix">
			<RaceName>Monaco Grand Prix</RaceName>
			<Circuit circuitId="monaco" url="http://en.wikipedia.org/wiki/Circuit_de_Monaco">
				<CircuitName>Circuit de Monaco</CircuitName>
				<Location lat="43.7347" long="7.42056">
					<Locality>Monte-Carlo</Locality>
					<Country>Monaco</Country>
				</Location>
			</Circuit>
			<Date>1966-05-22</Date>
		</Race>
		<Race season="1966" round="2" url="http://en.wikipedia.org/wiki/1966_Belgian_Grand_Prix">
			<RaceName>Belgian Grand Prix</RaceName>
			<Circuit circuitId="spa" url="http://en.wikipedia.org/wiki/Circuit_de_Spa-Francorchamps">
				<CircuitName>Circuit de Spa-Francorchamps</CircuitName>
				<Location lat="50.4372" long="5.97139">
					<Locality>Spa</Locality>
					<Country>Belgium</Country>
				</Location>
			</Circuit>
			<Date>1966-06-12</Date>
		</Race>
		<Race season="1966" round="3" url="http://en.wikipedia.org/wiki/1966_French_Grand_Prix">
			<RaceName>French Grand Prix</RaceName>
			<Circuit circuitId="reims" url="http://en.wikipedia.org/wiki/Reims-Gueux">
				<CircuitName>Reims-Gueux</CircuitName>
				<Location lat="49.2542" long="3.93083">
					<Locality>Reims</Locality>
					<Country>France</Country>
				</Location>
			</Circuit>
			<Date>1966-07-03</Date>
		</Race>
		<Race season="1966" round="4" url="http://en.wikipedia.org/wiki/1966_British_Grand_Prix">
			<RaceName>British Grand Prix</RaceName>
			<Circuit circuitId="brands_hatch" url="http://en.wikipedia.org/wiki/Brands_Hatch">
				<CircuitName>Brands Hatch</CircuitName>
				<Location lat="51.3569" long="0.263056">
					<Locality>Kent</Locality>
					<Country>UK</Country>
				</Location>
			</Circuit>
			<Date>1966-07-16</Date>
		</Race>
		<Race season="1966" round="5" url="http://en.wikipedia.org/wiki/1966_Dutch_Grand_Prix">
			<RaceName>Dutch Grand Prix</RaceName>
			<Circuit circuitId="zandvoort" url="http://en.wikipedia.org/wiki/Circuit_Zandvoort">
				<CircuitName>Circuit Park Zandvoort</CircuitName>
				<Location lat="52.3888" long="4.54092">
					<Locality>Zandvoort</Locality>
					<Country>Netherlands</Country>
				</Location>
			</Circuit>
			<Date>1966-07-24</Date>
		</Race>
		<Race season="1966" round="6" url="http://en.wikipedia.org/wiki/1966_German_Grand_Prix">
			<RaceName>German Grand Prix</RaceName>
			<Circuit circuitId="nurburgring" url="http://en.wikipedia.org/wiki/N%C3%BCrburgring">
				<CircuitName>Nürburgring</CircuitName>
				<Location lat="50.3356" long="6.9475">
					<Locality>Nürburg</Locality>
					<Country>Germany</Country>
				</Location>
			</Circuit>
			<Date>1966-08-07</Date>
		</Race>
		<Race season="1966" round="7" url="http://en.wikipedia.org/wiki/1966_Italian_Grand_Prix">
			<RaceName>Italian Grand Prix</RaceName>
			<Circuit circuitId="monza" url="http://en.wikipedia.org/wiki/Autodromo_Nazionale_Monza">
				<CircuitName>Autodromo Nazionale di Monza</CircuitName>
				<Location lat="45.6156" long="9.28111">
					<Locality>Monza</Locality>
					<Country>Italy</Country>
				</Location>
			</Circuit>
			<Date>1966-09-04</Date>
		</Race>
		<Race season="1966" round="8" url="http://en.wikipedia.org/wiki/1966_United_States_Grand_Prix">
			<RaceName>United States Grand Prix</RaceName>
			<Circuit circuitId="watkins_glen" url="http://en.wikipedia.org/wiki/Watkins_Glen_International">
				<CircuitName>Watkins Glen</CircuitName>
				<Location lat="42.3369" long="-76.9272">
					<Locality>New York State</Locality>
					<Country>USA</Country>
				</Location>
			</Circuit>
			<Date>1966-10-02</Date>
		</Race>
		<Race season="1966" round="9" url="http://en.wikipedia.org/wiki/1966_Mexican_Grand_Prix">
			<RaceName>Mexican Grand Prix</RaceName>
			<Circuit circuitId="rodriguez" url="http://en.wikipedia.org/wiki/Aut%C3%B3dromo_Hermanos_Rodr%C3%ADguez">
				<CircuitName>Autódromo Hermanos Rodríguez</CircuitName>
				<Location lat="19.4042" long="-99.0907">
					<Locality>Mexico City</Locality>
					<Country>Mexico</Country>
				</Location>
			</Circuit>
			<Date>1966-10-23</Date>
		</Race>
	</RaceTable>
</MRData>
