<?xml version="1.0" encoding="utf-8"?>
<?xml-stylesheet type="text/xsl" href="/schemas/mrd-1.5.xsl"?>
<MRData xmlns="http://ergast.com/mrd/1.5" series="f1" url="http://ergast.com/api/f1/1976/races" limit="30" offset="0" total="16">
	<RaceTable season="1976">
		<Race season="1976" round="1" url="http://en.wikipedia.org/wiki/1976_Brazilian_Grand_Prix">
			<RaceName>Brazilian Grand Prix</RaceName>
			<Circuit circuitId="interlagos" url="http://en.wikipedia.org/wiki/Aut%C3%B3dromo_Jos%C3%A9_Carlos_Pace">
				<CircuitName>Autódromo José Carlos Pace</CircuitName>
				<Location lat="-23.7036" long="-46.6997">
					<Locality>São Paulo</Locality>
					<Country>Brazil</Country>
				</Location>
			</Circuit>
			<Date>1976-01-25</Date>
		</Race>
		<Race season="1976" round="2" url="http://en.wikipedia.org/wiki/1976_South_African_Grand_Prix">
			<RaceName>South African Grand Prix</RaceName>
			<Circuit circuitId="kyalami" url="http://en.wikipedia.org/wiki/Kyalami">
				<CircuitName>Kyalami</CircuitName>
				<Location lat="-25.9894" long="28.0767">
					<Locality>Midrand</Locality>
					<Country>South Africa</Country>
				</Location>
			</Circuit>
			<Date>1976-03-06</Date>
		</Race>
		<Race season="1976" round="3" url="http://en.wikipedia.org/wiki/1976_United_States_Grand_Prix_West">
			<RaceName>United States Grand Prix West</RaceName>
			<Circuit circuitId="long_beach" url="http://en.wikipedia.org/wiki/Long_Beach,_California">
				<CircuitName>Long Beach</CircuitName>
				<Location lat="33.7651" long="-118.189">
					<Locality>California</Locality>
					<Country>USA</Country>
				</Location>
			</Circuit>
			<Date>1976-03-28</Date>
		</Race>
		<Race season="1976" round="4" url="http://en.wikipedia.org/wiki/1976_Spanish_Grand_Prix">
			<RaceName>Spanish Grand Prix</RaceName>
			<Circuit circuitId="jarama" url="http://en.wikipedia.org/wiki/Circuito_Permanente_Del_Jarama">
				<CircuitName>Jarama</CircuitName>
				<Location lat="40.6171" long="-3.58558">
					<Locality>Madrid</Locality>
					<Country>Spain</Country>
				</Location>
			</Circuit>
			<Date>1976-05-02</Date>
		</Race>
		<Race season="1976" round="5" url="http://en.wikipedia.org/wiki/1976_Belgian_Grand_Prix">
			<RaceName>Belgian Grand Prix</RaceName>
			<Circuit circuitId="zolder" url="http://en.wikipedia.org/wiki/Zolder">
				<CircuitName>Zolder</CircuitName>
				<Location lat="50.9894" long="5.25694">
					<Locality>Heusden-Zolder</Locality>
					<Country>Belgium</Country>
				</Location>
			</Circuit>
			<Date>1976-05-16</Date>
		</Race>
		<Race season="1976" round="6" url="http://en.wikipedia.org/wiki/1976_Monaco_Grand_Prix">
			<RaceName>Monaco Grand Prix</RaceName>
			<Circuit circuitId="monaco" url="http://en.wikipedia.org/wiki/Circuit_de_Monaco">
				<CircuitName>Circuit de Monaco</CircuitName>
				<Location lat="43.7347" long="7.42056">
					<Locality>Monte-Carlo</Locality>
					<Country>Monaco</Country>
				</Location>
			</Circuit>
			<Date>1976-05-30</Date>
		</Race>
		<Race season="1976" round="7" url="http://en.wikipedia.org/wiki/1976_Swedish_Grand_Prix">
			<RaceName>Swedish Grand Prix</RaceName>
			<Circuit circuitId="anderstorp" url="http://en.wikipedia.org/wiki/Scandinavian_Raceway">
				<CircuitName>Scandinavian Raceway</CircuitName>
				<Location lat="57.2653" long="13.6042">
					<Locality>Anderstorp</Locality>
					<Country>Sweden</Country>
				</Location>
			</Circuit>
			<Date>1976-06-13</Date>
		</Race>
		<Race season="1976" round="8" url="http://en.wikipedia.org/wiki/1976_French_Grand_Prix">
			<RaceName>French Grand Prix</RaceName>
			<Circuit circuitId="ricard" url="http://en.wikipedia.org/wiki/Paul_Ricard_Circuit">
				<CircuitName>Circuit Paul Ricard</CircuitName>
				<Location lat="43.2506" long="5.79167">
					<Locality>Le Castellet</Locality>
					<Country>France</Country>
				</Location>
			</Circuit>
			<Date>1976-07-04</Date>
		</Race>
		<Race season="1976" round="9" url="http://en.wikipedia.org/wiki/1976_British_Grand_Prix">
			<RaceName>British Grand Prix</RaceName>
			<Circuit circuitId="brands_hatch" url="http://en.wikipedia.org/wiki/Brands_Hatch">
				<CircuitName>Brands Hatch</CircuitName>
				<Location lat="51.3569" long="0.263056">
					<Locality>Kent</Locality>
					<Country>UK</Country>
				</Location>
			</Circuit>
			<Date>1976-07-18</Date>
		</Race>
		<Race season="1976" round="10" url="http://en.wikipedia.org/wiki/1976_German_Grand_Prix">
			<RaceName>German Grand Prix</RaceName>
			<Circuit circuitId="nurburgring" url="http://en.wikipedia.org/wiki/N%C3%BCrburgring">
				<CircuitName>Nürburgring</CircuitName>
				<Location lat="50.3356" long="6.9475">
					<Locality>Nürburg</Locality>
					<Country>Germany</Country>
				</Location>
			</Circuit>
			<Date>1976-08-01</Date>
		</Race>
		<Race season="1976" round="11" url="http://en.wikipedia.org/wiki/1976_Austrian_Grand_Prix">
			<RaceName>Austrian Grand Prix</RaceName>
			<Circuit circuitId="red_bull_ring" url="http://en.wikipedia.org/wiki/Red_Bull_Ring">
				<CircuitName>Red Bull Ring</CircuitName>
				<Location lat="47.2197" long="14.7647">
					<Locality>Spielberg</Locality>
					<Country>Austria</Country>
				</Location>
			</Circuit>
			<Date>1976-08-15</Date>
		</Race>
		<Race season="1976" round="12" url="http://en.wikipedia.org/wiki/1976_Dutch_Grand_Prix">
			<RaceName>Dutch Grand Prix</RaceName>
			<Circuit circuitId="zandvoort" url="http://en.wikipedia.org/wiki/Circuit_Zandvoort">
				<CircuitName>Circuit Park Zandvoort</CircuitName>
				<Location lat="52.3888" long="4.54092">
					<Locality>Zandvoort</Locality>
					<Country>Netherlands</Country>
				</Location>
			</Circuit>
			<Date>1976-08-29</Date>
		</Race>
		<Race season="1976" round="13" url="http://en.wikipedia.org/wiki/1976_Italian_Grand_Prix">
			<RaceName>Italian Grand Prix</RaceName>
			<Circuit circuitId="monza" url="http://en.wikipedia.org/wiki/Autodromo_Nazionale_Monza">
				<CircuitName>Autodromo Nazionale di Monza</CircuitName>
				<Location lat="45.6156" long="9.28111">
					<Locality>Monza</Locality>
					<Country>Italy</Country>
				</Location>
			</Circuit>
			<Date>1976-09-12</Date>
		</Race>
		<Race season="1976" round="14" url="http://en.wikipedia.org/wiki/1976_Canadian_Grand_Prix">
			<RaceName>Canadian Grand Prix</RaceName>
			<Circuit circuitId="mosport" url="http://en.wikipedia.org/wiki/Mosport">
				<CircuitName>Mosport International Raceway</CircuitName>
				<Location lat="44.0481" long="-78.6756">
					<Locality>Ontario</Locality>
					<Country>Canada</Country>
				</Location>
			</Circuit>
			<Date>1976-10-03</Date>
		</Race>
		<Race season="1976" round="15" url="http://en.wikipedia.org/wiki/1976_United_States_Grand_Prix">
			<RaceName>United States Grand Prix</RaceName>
			<Circuit circuitId="watkins_glen" url="http://en.wikipedia.org/wiki/Watkins_Glen_International">
				<CircuitName>Watkins Glen</CircuitName>
				<Location lat="42.3369" long="-76.9272">
					<Locality>New York State</Locality>
					<Country>USA</Country>
				</Location>
			</Circuit>
			<Date>1976-10-10</Date>
		</Race>
		<Race season="1976" round="16" url="http://en.wikipedia.org/wiki/1976_Japanese_Grand_Prix">
			<RaceName>Japanese Grand Prix</RaceName>
			<Circuit circuitId="fuji" url="http://en.wikipedia.org/wiki/Fuji_Speedway">
				<CircuitName>Fuji Speedway</CircuitName>
				<Location lat="35.3717" long="138.927">
					<Locality>Oyama</Locality>
					<Country>Japan</Country>
				</Location>
			</Circuit>
			<Date>1976-10-24</Date>
		</Race>
	</RaceTable>
</MRData>
