<?xml version="1.0" encoding="utf-8"?>
<?xml-stylesheet type="text/xsl" href="/schemas/mrd-1.5.xsl"?>
<MRData xmlns="http://ergast.com/mrd/1.5" series="f1" url="http://ergast.com/api/f1/1974/races" limit="30" offset="0" total="15">
	<RaceTable season="1974">
		<Race season="1974" round="1" url="http://en.wikipedia.org/wiki/1974_Argentine_Grand_Prix">
			<RaceName>Argentine Grand Prix</RaceName>
			<Circuit circuitId="galvez" url="http://en.wikipedia.org/wiki/Aut%C3%B3dromo_Oscar_Alfredo_G%C3%A1lvez">
				<CircuitName>Autódromo Juan y Oscar Gálvez</CircuitName>
				<Location lat="-34.6943" long="-58.4593">
					<Locality>Buenos Aires</Locality>
					<Country>Argentina</Country>
				</Location>
			</Circuit>
			<Date>1974-01-13</Date>
		</Race>
		<Race season="1974" round="2" url="http://en.wikipedia.org/wiki/1974_Brazilian_Grand_Prix">
			<RaceName>Brazilian Grand Prix</RaceName>
			<Circuit circuitId="interlagos" url="http://en.wikipedia.org/wiki/Aut%C3%B3dromo_Jos%C3%A9_Carlos_Pace">
				<CircuitName>Autódromo José Carlos Pace</CircuitName>
				<Location lat="-23.7036" long="-46.6997">
					<Locality>São Paulo</Locality>
					<Country>Brazil</Country>
				</Location>
			</Circuit>
			<Date>1974-01-27</Date>
		</Race>
		<Race season="1974" round="3" url="http://en.wikipedia.org/wiki/1974_South_African_Grand_Prix">
			<RaceName>South African Grand Prix</RaceName>
			<Circuit circuitId="kyalami" url="http://en.wikipedia.org/wiki/Kyalami">
				<CircuitName>Kyalami</CircuitName>
				<Location lat="-25.9894" long="28.0767">
					<Locality>Midrand</Locality>
					<Country>South Africa</Country>
				</Location>
			</Circuit>
			<Date>1974-03-30</Date>
		</Race>
		<Race season="1974" round="4" url="http://en.wikipedia.org/wiki/1974_Spanish_Grand_Prix">
			<RaceName>Spanish Grand Prix</RaceName>
			<Circuit circuitId="jarama" url="http://en.wikipedia.org/wiki/Circuito_Permanente_Del_Jarama">
				<CircuitName>Jarama</CircuitName>
				<Location lat="40.6171" long="-3.58558">
					<Locality>Madrid</Locality>
					<Country>Spain</Country>
				</Location>
			</Circuit>
			<Date>1974-04-28</Date>
		</Race>
		<Race season="1974" round="5" url="http://en.wikipedia.org/wiki/1974_Belgian_Grand_Prix">
			<RaceName>Belgian Grand Prix</RaceName>
			<Circuit circuitId="nivelles" url="http://en.wikipedia.org/wiki/Nivelles-Baulers">
				<CircuitName>Nivelles-Baulers</CircuitName>
				<Location lat="50.6211" long="4.32694">
					<Locality>Brussels</Locality>
					<Country>Belgium</Country>
				</Location>
			</Circuit>
			<Date>1974-05-12</Date>
		</Race>
		<Race season="1974" round="6" url="http://en.wikipedia.org/wiki/1974_Monaco_Grand_Prix">
			<RaceName>Monaco Grand Prix</RaceName>
			<Circuit circuitId="monaco" url="http://en.wikipedia.org/wiki/Circuit_de_Monaco">
				<CircuitName>Circuit de Monaco</CircuitName>
				<Location lat="43.7347" long="7.42056">
					<Locality>Monte-Carlo</Locality>
					<Country>Monaco</Country>
				</Location>
			</Circuit>
			<Date>1974-05-26</Date>
		</Race>
		<Race season="1974" round="7" url="http://en.wikipedia.org/wiki/1974_Swedish_Grand_Prix">
			<RaceName>Swedish Grand Prix</RaceName>
			<Circuit circuitId="anderstorp" url="http://en.wikipedia.org/wiki/Scandinavian_Raceway">
				<CircuitName>Scandinavian Raceway</CircuitName>
				<Location lat="57.2653" long="13.6042">
					<Locality>Anderstorp</Locality>
					<Country>Sweden</Country>
				</Location>
			</Circuit>
			<Date>1974-06-09</Date>
		</Race>
		<Race season="1974" round="8" url="http://en.wikipedia.org/wiki/1974_Dutch_Grand_Prix">
			<RaceName>Dutch Grand Prix</RaceName>
			<Circuit circuitId="zandvoort" url="http://en.wikipedia.org/wiki/Circuit_Zandvoort">
				<CircuitName>Circuit Park Zandvoort</CircuitName>
				<Location lat="52.3888" long="4.54092">
					<Locality>Zandvoort</Locality>
					<Country>Netherlands</Country>
				</Location>
			</Circuit>
			<Date>1974-06-23</Date>
		</Race>
		<Race season="1974" round="9" url="http://en.wikipedia.org/wiki/1974_French_Grand_Prix">
			<RaceName>French Grand Prix</RaceName>
			<Circuit circuitId="dijon" url="http://en.wikipedia.org/wiki/Dijon-Prenois">
				<CircuitName>Dijon-Prenois</CircuitName>
				<Location lat="47.3625" long="4.89913">
					<Locality>Dijon</Locality>
					<Country>France</Country>
				</Location>
			</Circuit>
			<Date>1974-07-07</Date>
		</Race>
		<Race season="1974" round="10" url="http://en.wikipedia.org/wiki/1974_British_Grand_Prix">
			<RaceName>British Grand Prix</RaceName>
			<Circuit circuitId="brands_hatch" url="http://en.wikipedia.org/wiki/Brands_Hatch">
				<CircuitName>Brands Hatch</CircuitName>
				<Location lat="51.3569" long="0.263056">
					<Locality>Kent</Locality>
					<Country>UK</Country>
				</Location>
			</Circuit>
			<Date>1974-07-20</Date>
		</Race>
		<Race season="1974" round="11" url="http://en.wikipedia.org/wiki/1974_German_Grand_Prix">
			<RaceName>German Grand Prix</RaceName>
			<Circuit circuitId="nurburgring" url="http://en.wikipedia.org/wiki/N%C3%BCrburgring">
				<CircuitName>Nürburgring</CircuitName>
				<Location lat="50.3356" long="6.9475">
					<Locality>Nürburg</Locality>
					<Country>Germany</Country>
				</Location>
			</Circuit>
			<Date>1974-08-04</Date>
		</Race>
		<Race season="1974" round="12" url="http://en.wikipedia.org/wiki/1974_Austrian_Grand_Prix">
			<RaceName>Austrian Grand Prix</RaceName>
			<Circuit circuitId="red_bull_ring" url="http://en.wikipedia.org/wiki/Red_Bull_Ring">
				<CircuitName>Red Bull Ring</CircuitName>
				<Location lat="47.2197" long="14.7647">
					<Locality>Spielberg</Locality>
					<Country>Austria</Country>
				</Location>
			</Circuit>
			<Date>1974-08-18</Date>
		</Race>
		<Race season="1974" round="13" url="http://en.wikipedia.org/wiki/1974_Italian_Grand_Prix">
			<RaceName>Italian Grand Prix</RaceName>
			<Circuit circuitId="monza" url="http://en.wikipedia.org/wiki/Autodromo_Nazionale_Monza">
				<CircuitName>Autodromo Nazionale di Monza</CircuitName>
				<Location lat="45.6156" long="9.28111">
					<Locality>Monza</Locality>
					<Country>Italy</Country>
				</Location>
			</Circuit>
			<Date>1974-09-08</Date>
		</Race>
		<Race season="1974" round="14" url="http://en.wikipedia.org/wiki/1974_Canadian_Grand_Prix">
			<RaceName>Canadian Grand Prix</RaceName>
			<Circuit circuitId="mosport" url="http://en.wikipedia.org/wiki/Mosport">
				<CircuitName>Mosport International Raceway</CircuitName>
				<Location lat="44.0481" long="-78.6756">
					<Locality>Ontario</Locality>
					<Country>Canada</Country>
				</Location>
			</Circuit>
			<Date>1974-09-22</Date>
		</Race>
		<Race season="1974" round="15" url="http://en.wikipedia.org/wiki/1974_United_States_Grand_Prix">
			<RaceName>United States Grand Prix</RaceName>
			<Circuit circuitId="watkins_glen" url="http://en.wikipedia.org/wiki/Watkins_Glen_International">
				<CircuitName>Watkins Glen</CircuitName>
				<Location lat="42.3369" long="-76.9272">
					<Locality>New York State</Locality>
					<Country>USA</Country>
				</Location>
			</Circuit>
			<Date>1974-10-06</Date>
		</Race>
	</RaceTable>
</MRData>
