<?xml version="1.0" encoding="utf-8"?>
<?xml-stylesheet type="text/xsl" href="/schemas/mrd-1.5.xsl"?>
<MRData xmlns="http://ergast.com/mrd/1.5" series="f1" url="http://ergast.com/api/f1/1954/races" limit="30" offset="0" total="9">
	<RaceTable season="1954">
		<Race season="1954" round="1" url="http://en.wikipedia.org/wiki/1954_Argentine_Grand_Prix">
			<RaceName>Argentine Grand Prix</RaceName>
			<Circuit circuitId="galvez" url="http://en.wikipedia.org/wiki/Aut%C3%B3dromo_Oscar_Alfredo_G%C3%A1lvez">
				<CircuitName>Autódromo Juan y Oscar Gálvez</CircuitName>
				<Location lat="-34.6943" long="-58.4593">
					<Locality>Buenos Aires</Locality>
					<Country>Argentina</Country>
				</Location>
			</Circuit>
			<Date>1954-01-17</Date>
		</Race>
		<Race season="1954" round="2" url="http://en.wikipedia.org/wiki/1954_Indianapolis_500">
			<RaceName>Indianapolis 500</RaceName>
			<Circuit circuitId="indianapolis" url="http://en.wikipedia.org/wiki/Indianapolis_Motor_Speedway">
				<CircuitName>Indianapolis Motor Speedway</CircuitName>
				<Location lat="39.795" long="-86.2347">
					<Locality>Indianapolis</Locality>
					<Country>USA</Country>
				</Location>
			</Circuit>
			<Date>1954-05-31</Date>
		</Race>
		<Race season="1954" round="3" url="http://en.wikipedia.org/wiki/1954_Belgian_Grand_Prix">
			<RaceName>Belgian Grand Prix</RaceName>
			<Circuit circuitId="spa" url="http://en.wikipedia.org/wiki/Circuit_de_Spa-Francorchamps">
				<CircuitName>Circuit de Spa-Francorchamps</CircuitName>
				<Location lat="50.4372" long="5.97139">
					<Locality>Spa</Locality>
					<Country>Belgium</Country>
				</Location>
			</Circuit>
			<Date>1954-06-20</Date>
		</Race>
		<Race season="1954" round="4" url="http://en.wikipedia.org/wiki/1954_French_Grand_Prix">
			<RaceName>French Grand Prix</RaceName>
			<Circuit circuitId="reims" url="http://en.wikipedia.org/wiki/Reims-Gueux">
				<CircuitName>Reims-Gueux</CircuitName>
				<Location lat="49.2542" long="3.93083">
					<Locality>Reims</Locality>
					<Country>France</Country>
				</Location>
			</Circuit>
			<Date>1954-07-04</Date>
		</Race>
		<Race season="1954" round="5" url="http://en.wikipedia.org/wiki/1954_British_Grand_Prix">
			<RaceName>British Grand Prix</RaceName>
			<Circuit circuitId="silverstone" url="http://en.wikipedia.org/wiki/Silverstone_Circuit">
				<CircuitName>Silverstone Circuit</CircuitName>
				<Location lat="52.0786" long="-1.01694">
					<Locality>Silverstone</Locality>
					<Country>UK</Country>
				</Location>
			</Circuit>
			<Date>1954-07-17</Date>
		</Race>
		<Race season="1954" round="6" url="http://en.wikipedia.org/wiki/1954_German_Grand_Prix">
			<RaceName>German Grand Prix</RaceName>
			<Circuit circuitId="nurburgring" url="http://en.wikipedia.org/wiki/N%C3%BCrburgring">
				<CircuitName>Nürburgring</CircuitName>
				<Location lat="50.3356" long="6.9475">
					<Locality>Nürburg</Locality>
					<Country>Germany</Country>
				</Location>
			</Circuit>
			<Date>1954-08-01</Date>
		</Race>
		<Race season="1954" round="7" url="http://en.wikipedia.org/wiki/1954_Swiss_Grand_Prix">
			<RaceName>Swiss Grand Prix</RaceName>
			<Circuit circuitId="bremgarten" url="http://en.wikipedia.org/wiki/Circuit_Bremgarten">
				<CircuitName>Circuit Bremgarten</CircuitName>
				<Location lat="46.9589" long="7.40194">
					<Locality>Bern</Locality>
					<Country>Switzerland</Country>
				</Location>
			</Circuit>
			<Date>1954-08-22</Date>
		</Race>
		<Race season="1954" round="8" url="http://en.wikipedia.org/wiki/1954_Italian_Grand_Prix">
			<RaceName>Italian Grand Prix</RaceName>
			<Circuit circuitId="monza" url="http://en.wikipedia.org/wiki/Autodromo_Nazionale_Monza">
				<CircuitName>Autodromo Nazionale di Monza</CircuitName>
				<Location lat="45.6156" long="9.28111">
					<Locality>Monza</Locality>
					<Country>Italy</Country>
				</Location>
			</Circuit>
			<Date>1954-09-05</Date>
		</Race>
		<Race season="1954" round="9" url="http://en.wikipedia.org/wiki/1954_Spanish_Grand_Prix">
			<RaceName>Spanish Grand Prix</RaceName>
			<Circuit circuitId="pedralbes" url="http://en.wikipedia.org/wiki/Pedralbes_Circuit">
				<CircuitName>Circuit de Pedralbes</CircuitName>
				<Location lat="41.3903" long="2.11667">
					<Locality>Barcelona</Locality>
					<Country>Spain</Country>
				</Location>
			</Circuit>
			<Date>1954-10-24</Date>
		</Race>
	</RaceTable>
</MRData>
